episode,step,task,action_x,action_y,action_z,action_gripper,ee_x,ee_y,ee_z,ee_vx,ee_vy,ee_vz,gripper_width,gripper_state,cube_x,cube_y,cube_z,active_target_name,active_target_index,target_x,target_y,target_z,dist_ee_cube,dist_cube_target,reward,success,obstacle_in_path,obstacle_count,obstacle_1_type,obstacle_1_mass,obstacle_1_size_x,obstacle_1_size_y,obstacle_1_size_z,object_1_type,object_1_mass,object_1_size_x,object_1_size_y,object_1_size_z,table_x,table_y,table_z,table_offset_x,robot_control,robot_block_gripper,robot_base_x,robot_base_y,robot_base_z,scripts,joint_1,joint_2,joint_3,joint_4,joint_5,joint_6,joint_7,joint_vel_1,joint_vel_2,joint_vel_3,joint_vel_4,joint_vel_5,joint_vel_6,joint_vel_7,cube_roll,cube_pitch,cube_yaw,cube_vx,cube_vy,cube_vz,goal_mode,goal_n_targets,goal_0_name,goal_0_x,goal_0_y,goal_0_z,dist_goal_0,goal_1_name,goal_1_x,goal_1_y,goal_1_z,dist_goal_1,goal_2_name,goal_2_x,goal_2_y,goal_2_z,dist_goal_2,goal_3_name,goal_3_x,goal_3_y,goal_3_z,dist_goal_3,target_changed,timestep
1,1,PICK_AND_PLACE,-0.108,0.0,-0.994,1.0,0.04,0.0,0.171,-0.265,-0.001,-1.261,0.07,ABERTA,0.03,0.0,0.02,target,0,0.15,0.0,0.02,0.151,0.12,-0.12,False,True,1,box,0.0,0.02,0.3,0.1,box,1.0,0.04,0.04,0.04,1.1,0.7,0.4,-0.3,ee,False,-0.6,0.0,0.05,script_1|reach_only|left_right,-0.0,0.45,0.0,-1.88,-0.0,2.35,0.79,-0.0,1.91,0.0,-0.24,-0.01,0.69,-0.03,0.0,-0.0,-0.0,-0.0,0.0,-0.0,goal_sequence,4,target,0.15000000596046448,0.0,0.019999999552965164,0.12000000596046448,target_1,0.15000000596046448,0.10000000149011612,0.019999999552965164,0.15620499905103785,target_2,-0.10000000149011612,0.0,0.019999999552965164,0.13000000149011612,target_3,-0.10000000149011612,0.10000000149011612,0.019999999552965164,0.16401219675820886,True,0
1,2,PICK_AND_PLACE,-0.198,-0.0,-0.98,1.0,0.028,0.0,0.114,-0.377,0.0,-1.176,0.079,ABERTA,0.03,0.0,0.02,target,0,0.15,0.0,0.02,0.0944,0.12,-0.12,False,True,1,box,0.0,0.02,0.3,0.1,box,1.0,0.04,0.04,0.04,1.1,0.7,0.4,-0.3,ee,False,-0.6,0.0,0.05,script_1|reach_only|left_right,-0.0,0.53,0.0,-1.9,-0.0,2.41,0.79,-0.0,1.83,0.0,-0.17,-0.0,0.47,-0.0,0.0,-0.0,-0.0,-0.0,0.0,-0.0,goal_sequence,4,target,0.15000000596046448,0.0,0.019999999552965164,0.12000000596046448,target_1,0.15000000596046448,0.10000000149011612,0.019999999552965164,0.15620499905103785,target_2,-0.10000000149011612,0.0,0.019999999552965164,0.13000000149011612,target_3,-0.10000000149011612,0.10000000149011612,0.019999999552965164,0.16401219675820886,False,1
1,3,PICK_AND_PLACE,0.336,-0.0,0.942,1.0,0.014,0.0,0.08,-0.211,0.0,-0.558,0.08,ABERTA,0.03,0.0,0.02,target,0,0.15,0.0,0.02,0.062,0.12,-0.12,False,True,1,box,0.0,0.02,0.3,0.1,box,1.0,0.04,0.04,0.04,1.1,0.7,0.4,-0.3,ee,False,-0.6,0.0,0.05,script_1|reach_only|left_right,-0.0,0.6,0.0,-1.86,-0.0,2.34,0.79,-0.0,1.09,0.0,0.4,0.0,-0.55,-0.0,0.0,-0.0,-0.0,0.0,-0.0,0.0,goal_sequence,4,target,0.15000000596046448,0.0,0.019999999552965164,0.12000000596046448,target_1,0.15000000596046448,0.10000000149011612,0.019999999552965164,0.15620499905103785,target_2,-0.10000000149011612,0.0,0.019999999552965164,0.13000000149011612,target_3,-0.10000000149011612,0.10000000149011612,0.019999999552965164,0.16401219675820886,False,2
1,4,PICK_AND_PLACE,0.084,-0.0,-0.262,1.0,0.023,0.0,0.064,0.039,-0.002,-0.144,0.08,ABERTA,0.03,0.0,0.02,target,0,0.15,0.0,0.02,0.0448,0.12,-0.12,False,True,1,box,0.0,0.02,0.3,0.1,box,1.0,0.04,0.04,0.04,1.1,0.7,0.4,-0.3,ee,False,-0.6,0.0,0.05,script_1|reach_only|left_right,-0.0,0.62,0.0,-1.91,-0.0,2.5,0.79,0.0,0.17,-0.0,-0.38,-0.03,1.25,0.0,-0.0,-0.0,-0.0,0.0,-0.0,0.0,goal_sequence,4,target,0.15000000596046448,0.0,0.019999999552965164,0.12000000596046448,target_1,0.15000000596046448,0.10000000149011612,0.019999999552965164,0.15620499905103785,target_2,-0.10000000149011612,0.0,0.019999999552965164,0.13000000149011612,target_3,-0.10000000149011612,0.10000000149011612,0.019999999552965164,0.16401219675820886,False,3
1,5,PICK_AND_PLACE,0.026,-0.0,-0.119,1.0,0.025,0.0,0.059,0.014,-0.0,-0.04,0.08,ABERTA,0.03,0.0,0.02,target,0,0.15,0.0,0.02,0.0393,0.12,-0.12,False,True,1,box,0.0,0.02,0.3,0.1,box,1.0,0.04,0.04,0.04,1.1,0.7,0.4,-0.3,ee,False,-0.6,0.0,0.05,script_1|reach_only|left_right,-0.0,0.63,0.0,-1.91,-0.0,2.54,0.79,0.0,0.07,-0.0,-0.05,-0.0,0.27,-0.0,-0.0,-0.0,-0.0,0.0,0.0,0.0,goal_sequence,4,target,0.15000000596046448,0.0,0.019999999552965164,0.12000000596046448,target_1,0.15000000596046448,0.10000000149011612,0.019999999552965164,0.15620499905103785,target_2,-0.10000000149011612,0.0,0.019999999552965164,0.13000000149011612,target_3,-0.10000000149011612,0.10000000149011612,0.019999999552965164,0.16401219675820886,False,4
1,6,PICK_AND_PLACE,0.016,-0.0,-0.085,1.0,0.025,0.0,0.055,0.003,-0.0,-0.03,0.08,ABERTA,0.03,0.0,0.02,target,0,0.15,0.0,0.02,0.0357,0.12,-0.12,False,True,1,box,0.0,0.02,0.3,0.1,box,1.0,0.04,0.04,0.04,1.1,0.7,0.4,-0.3,ee,False,-0.6,0.0,0.05,script_1|reach_only|left_right,-0.0,0.63,0.0,-1.91,-0.0,2.55,0.79,0.0,0.07,-0.0,0.01,-0.0,0.07,0.0,-0.0,-0.0,-0.0,0.0,-0.0,0.0,goal_sequence,4,target,0.15000000596046448,0.0,0.019999999552965164,0.12000000596046448,target_1,0.15000000596046448,0.10000000149011612,0.019999999552965164,0.15620499905103785,target_2,-0.10000000149011612,0.0,0.019999999552965164,0.13000000149011612,target_3,-0.10000000149011612,0.10000000149011612,0.019999999552965164,0.16401219675820886,False,5
1,7,PICK_AND_PLACE,0.012,-0.0,-0.065,1.0,0.026,0.0,0.053,0.002,-0.0,-0.022,0.08,ABERTA,0.03,0.0,0.02,target,0,0.15,0.0,0.02,0.0329,0.12,-0.12,False,True,1,box,0.0,0.02,0.3,0.1,box,1.0,0.04,0.04,0.04,1.1,0.7,0.4,-0.3,ee,False,-0.6,0.0,0.05,script_1|reach_only|left_right,-0.0,0.64,0.0,-1.91,-0.0,2.55,0.79,-0.0,0.05,-0.0,0.02,-0.0,0.03,0.0,-0.0,-0.0,-0.0,0.0,-0.0,0.0,goal_sequence,4,target,0.15000000596046448,0.0,0.019999999552965164,0.12000000596046448,target_1,0.15000000596046448,0.10000000149011612,0.019999999552965164,0.15620499905103785,target_2,-0.10000000149011612,0.0,0.019999999552965164,0.13000000149011612,target_3,-0.10000000149011612,0.10000000149011612,0.019999999552965164,0.16401219675820886,False,6
1,8,PICK_AND_PLACE,0.012,-0.0,-0.059,1.0,0.026,0.0,0.05,0.002,-0.0,-0.02,0.08,ABERTA,0.03,0.0,0.02,target,0,0.15,0.0,0.02,0.0304,0.12,-0.12,False,True,1,box,0.0,0.02,0.3,0.1,box,1.0,0.04,0.04,0.04,1.1,0.7,0.4,-0.3,ee,False,-0.6,0.0,0.05,script_1|reach_only|left_right,-0.0,0.65,0.0,-1.91,-0.0,2.55,0.79,-0.0,0.05,-0.0,0.02,-0.0,0.03,0.0,-0.0,-0.0,-0.0,0.0,0.0,0.0,goal_sequence,4,target,0.15000000596046448,0.0,0.019999999552965164,0.12000000596046448,target_1,0.15000000596046448,0.10000000149011612,0.019999999552965164,0.15620499905103785,target_2,-0.10000000149011612,0.0,0.019999999552965164,0.13000000149011612,target_3,-0.10000000149011612,0.10000000149011612,0.019999999552965164,0.16401219675820886,False,7
1,9,PICK_AND_PLACE,0.012,-0.0,-0.059,1.0,0.026,0.0,0.048,0.002,-0.0,-0.02,0.08,ABERTA,0.03,0.0,0.02,target,0,0.15,0.0,0.02,0.0279,0.12,-0.12,False,True,1,box,0.0,0.02,0.3,0.1,box,1.0,0.04,0.04,0.04,1.1,0.7,0.4,-0.3,ee,False,-0.6,0.0,0.05,script_1|reach_only|left_right,-0.0,0.65,0.0,-1.9,-0.0,2.56,0.79,-0.0,0.05,-0.0,0.02,-0.0,0.03,0.0,-0.0,-0.0,-0.0,0.0,0.0,0.0,goal_sequence,4,target,0.15000000596046448,0.0,0.019999999552965164,0.12000000596046448,target_1,0.15000000596046448,0.10000000149011612,0.019999999552965164,0.15620499905103785,target_2,-0.10000000149011612,0.0,0.019999999552965164,0.13000000149011612,target_3,-0.10000000149011612,0.10000000149011612,0.019999999552965164,0.16401219675820886,False,8
1,10,PICK_AND_PLACE,0.013,-0.0,-0.059,1.0,0.026,0.0,0.045,0.002,-0.0,-0.02,0.08,ABERTA,0.03,0.0,0.02,target,0,0.15,0.0,0.02,0.0254,0.12,-0.12,False,True,1,box,0.0,0.02,0.3,0.1,box,1.0,0.04,0.04,0.04,1.1,0.7,0.4,-0.3,ee,False,-0.6,0.0,0.05,script_1|reach_only|left_right,-0.0,0.66,0.0,-1.9,-0.0,2.56,0.79,-0.0,0.05,-0.0,0.02,-0.0,0.02,0.0,-0.0,-0.0,-0.0,0.0,0.0,0.0,goal_sequence,4,target,0.15000000596046448,0.0,0.019999999552965164,0.12000000596046448,target_1,0.15000000596046448,0.10000000149011612,0.019999999552965164,0.15620499905103785,target_2,-0.10000000149011612,0.0,0.019999999552965164,0.13000000149011612,target_3,-0.10000000149011612,0.10000000149011612,0.019999999552965164,0.16401219675820886,False,9
1,11,PICK_AND_PLACE,0.014,0.0,-0.058,1.0,0.027,-0.0,0.043,0.002,-0.0,-0.02,0.08,ABERTA,0.03,0.0,0.02,target,0,0.15,0.0,0.02,0.023,0.12,-0.12,False,True,1,box,0.0,0.02,0.3,0.1,box,1.0,0.04,0.04,0.04,1.1,0.7,0.4,-0.3,ee,False,-0.6,0.0,0.05,script_1|reach_only|left_right,-0.0,0.66,0.0,-1.9,-0.0,2.56,0.79,-0.0,0.05,-0.0,0.02,-0.0,0.02,0.0,-0.0,0.0,-0.0,0.0,-0.0,0.0,goal_sequence,4,target,0.15000000596046448,0.0,0.019999999552965164,0.12000000596046448,target_1,0.15000000596046448,0.10000000149011612,0.019999999552965164,0.15620499905103785,target_2,-0.10000000149011612,0.0,0.019999999552965164,0.13000000149011612,target_3,-0.10000000149011612,0.10000000149011612,0.019999999552965164,0.16401219675820886,False,10
1,12,PICK_AND_PLACE,0.015,0.0,-0.058,1.0,0.027,-0.0,0.04,0.002,-0.0,-0.02,0.08,ABERTA,0.03,0.0,0.02,target,0,0.15,0.0,0.02,0.0205,0.12,-0.12,False,True,1,box,0.0,0.02,0.3,0.1,box,1.0,0.04,0.04,0.04,1.1,0.7,0.4,-0.3,ee,False,-0.6,0.0,0.05,script_1|reach_only|left_right,-0.0,0.67,0.0,-1.9,-0.0,2.57,0.79,-0.0,0.05,-0.0,0.02,-0.0,0.02,0.0,-0.0,0.0,-0.0,0.0,-0.0,-0.0,goal_sequence,4,target,0.15000000596046448,0.0,0.019999999552965164,0.12000000596046448,target_1,0.15000000596046448,0.10000000149011612,0.019999999552965164,0.15620499905103785,target_2,-0.10000000149011612,0.0,0.019999999552965164,0.13000000149011612,target_3,-0.10000000149011612,0.10000000149011612,0.019999999552965164,0.16401219675820886,False,11
1,13,PICK_AND_PLACE,0.016,0.0,-0.058,1.0,0.028,-0.0,0.038,0.003,-0.0,-0.02,0.08,ABERTA,0.03,0.0,0.02,target,0,0.15,0.0,0.02,0.0181,0.12,-0.12,False,True,1,box,0.0,0.02,0.3,0.1,box,1.0,0.04,0.04,0.04,1.1,0.7,0.4,-0.3,ee,False,-0.6,0.0,0.05,script_1|reach_only|left_right,-0.0,0.68,0.0,-1.89,-0.0,2.57,0.79,-0.0,0.05,-0.0,0.03,-0.0,0.02,0.0,-0.0,0.0,-0.0,0.0,-0.0,-0.0,goal_sequence,4,target,0.15000000596046448,0.0,0.019999999552965164,0.12000000596046448,target_1,0.15000000596046448,0.10000000149011612,0.019999999552965164,0.15620499905103785,target_2,-0.10000000149011612,0.0,0.019999999552965164,0.13000000149011612,target_3,-0.10000000149011612,0.10000000149011612,0.019999999552965164,0.16401219675820886,False,12
1,14,PICK_AND_PLACE,0.018,0.0,-0.057,1.0,0.028,-0.0,0.035,0.003,-0.0,-0.019,0.08,ABERTA,0.03,0.0,0.02,target,0,0.15,0.0,0.02,0.0156,0.12,-0.12,False,True,1,box,0.0,0.02,0.3,0.1,box,1.0,0.04,0.04,0.04,1.1,0.7,0.4,-0.3,ee,False,-0.6,0.0,0.05,script_1|reach_only|left_right,-0.0,0.68,0.0,-1.89,-0.0,2.57,0.79,0.0,0.05,-0.0,0.03,-0.0,0.02,0.0,-0.0,0.0,-0.0,0.0,-0.0,-0.0,goal_sequence,4,target,0.15000000596046448,0.0,0.019999999552965164,0.12000000596046448,target_1,0.15000000596046448,0.10000000149011612,0.019999999552965164,0.15620499905103785,target_2,-0.10000000149011612,0.0,0.019999999552965164,0.13000000149011612,target_3,-0.10000000149011612,0.10000000149011612,0.019999999552965164,0.16401219675820886,False,13
1,15,PICK_AND_PLACE,0.02,0.0,-0.057,1.0,0.029,-0.0,0.033,0.004,0.0,-0.019,0.08,ABERTA,0.03,0.0,0.02,target,0,0.15,0.0,0.02,0.0132,0.12,-0.12,False,True,1,box,0.0,0.02,0.3,0.1,box,1.0,0.04,0.04,0.04,1.1,0.7,0.4,-0.3,ee,False,-0.6,0.0,0.05,script_1|reach_only|left_right,-0.0,0.69,0.0,-1.89,-0.0,2.57,0.79,0.0,0.05,-0.0,0.03,-0.0,0.02,0.0,-0.0,0.0,-0.0,0.0,-0.0,-0.0,goal_sequence,4,target,0.15000000596046448,0.0,0.019999999552965164,0.12000000596046448,target_1,0.15000000596046448,0.10000000149011612,0.019999999552965164,0.15620499905103785,target_2,-0.10000000149011612,0.0,0.019999999552965164,0.13000000149011612,target_3,-0.10000000149011612,0.10000000149011612,0.019999999552965164,0.16401219675820886,False,14
1,16,PICK_AND_PLACE,0.025,0.0,-0.055,-1.0,0.029,-0.0,0.031,0.006,0.0,-0.01,0.036,AGARRADA,0.03,-0.0,0.02,target,0,0.15,0.0,0.02,0.0112,0.12,-0.12,False,True,1,box,0.0,0.02,0.3,0.1,box,1.0,0.04,0.04,0.04,1.1,0.7,0.4,-0.3,ee,False,-0.6,0.0,0.05,script_1|reach_only|left_right,-0.0,0.69,0.0,-1.88,-0.0,2.58,0.79,0.0,0.03,-0.0,0.03,0.0,0.0,0.01,-0.0,0.001,0.0,0.002,-0.005,-0.001,goal_sequence,4,target,0.15000000596046448,0.0,0.019999999552965164,0.12000000596046448,target_1,0.15000000596046448,0.10000000149011612,0.019999999552965164,0.15620499905103785,target_2,-0.10000000149011612,0.0,0.019999999552965164,0.13000000149011612,target_3,-0.10000000149011612,0.10000000149011612,0.019999999552965164,0.16401219675820886,False,15
1,17,PICK_AND_PLACE,-0.008,-0.0,1.0,-1.0,0.016,-0.0,0.039,0.051,-0.0,0.441,0.035,AGARRADA,0.017,0.004,0.029,target,0,0.15,0.0,0.02,0.0109,0.1338,-0.1338,False,True,1,box,0.0,0.02,0.3,0.1,box,1.0,0.04,0.04,0.04,1.1,0.7,0.4,-0.3,ee,False,-0.6,0.0,0.05,script_1|reach_only|left_right,-0.0,0.66,0.0,-1.9,-0.0,2.5,0.79,-0.0,-0.89,0.0,-0.18,0.0,-0.56,-0.0,-0.001,0.041,0.019,0.053,0.102,0.441,goal_sequence,4,target,0.15000000596046448,0.0,0.019999999552965164,0.13336416907674342,target_1,0.15000000596046448,0.10000000149011612,0.019999999552965164,0.1642741668054734,target_2,-0.10000000149011612,0.0,0.019999999552965164,0.11741379968612634,target_3,-0.10000000149011612,0.10000000149011612,0.019999999552965164,0.1516113473419325,False,16
1,18,PICK_AND_PLACE,0.135,-0.0,0.991,-1.0,0.018,-0.0,0.064,0.3,-0.001,0.861,0.035,AGARRADA,0.019,0.008,0.055,target,0,0.15,0.0,0.02,0.0124,0.1355,-0.1355,False,True,1,box,0.0,0.02,0.3,0.1,box,1.0,0.04,0.04,0.04,1.1,0.7,0.4,-0.3,ee,False,-0.6,0.0,0.05,script_1|reach_only|left_right,-0.0,0.61,0.0,-1.92,-0.0,2.49,0.79,-0.0,-1.51,-0.0,-0.18,0.0,-0.1,-0.0,-0.002,0.02,0.019,0.313,0.104,0.862,goal_sequence,4,target,0.15000000596046448,0.0,0.019999999552965164,0.13583078293573284,target_1,0.15000000596046448,0.10000000149011612,0.019999999552965164,0.16385970177903883,target_2,-0.10000000149011612,0.0,0.019999999552965164,0.12429803049903919,target_3,-0.10000000149011612,0.10000000149011612,0.019999999552965164,0.15443445425202706,False,17
1,19,PICK_AND_PLACE,0.154,0.0,0.988,-1.0,0.025,-0.0,0.102,0.193,-0.001,0.708,0.037,AGARRADA,0.026,0.012,0.093,target,0,0.15,0.0,0.02,0.0158,0.1442,-0.1442,False,True,1,box,0.0,0.02,0.3,0.1,box,1.0,0.04,0.04,0.04,1.1,0.7,0.4,-0.3,ee,False,-0.6,0.0,0.05,script_1|reach_only|left_right,-0.0,0.54,0.0,-1.92,-0.0,2.45,0.79,-0.0,-1.2,-0.0,-0.03,0.0,-0.32,-0.0,-0.003,-0.005,0.019,0.201,0.107,0.709,goal_sequence,4,target,0.15000000596046448,0.0,0.019999999552965164,0.14439183336831177,target_1,0.15000000596046448,0.10000000149011612,0.019999999552965164,0.16866831891532788,target_2,-0.10000000149011612,0.0,0.019999999552965164,0.14611297150074098,target_3,-0.10000000149011612,0.10000000149011612,0.019999999552965164,0.1701440586768659,False,18
1,20,PICK_AND_PLACE,0.13,0.001,0.992,-1.0,0.027,-0.0,0.137,0.179,-0.002,0.804,0.038,AGARRADA,0.029,0.017,0.128,target,0,0.15,0.0,0.02,0.0192,0.163,-0.163,False,True,1,box,0.0,0.02,0.3,0.1,box,1.0,0.04,0.04,0.04,1.1,0.7,0.4,-0.3,ee,False,-0.6,0.0,0.05,script_1|reach_only|left_right,-0.0,0.48,0.0,-1.91,-0.0,2.37,0.79,0.0,-1.29,-0.0,0.11,0.0,-0.56,-0.0,-0.003,-0.004,0.018,0.187,0.091,0.805,goal_sequence,4,target,0.15000000596046448,0.0,0.019999999552965164,0.16307667380404828,target_1,0.15000000596046448,0.10000000149011612,0.019999999552965164,0.182192211102317,target_2,-0.10000000149011612,0.0,0.019999999552965164,0.16909760637279728,target_3,-0.10000000149011612,0.10000000149011612,0.019999999552965164,0.18760064159903284,False,19
1,21,PICK_AND_PLACE,0.251,0.018,-0.968,-1.0,0.054,0.001,0.151,0.043,0.005,-0.44,0.038,AGARRADA,0.056,0.019,0.139,target,0,0.15,0.0,0.02,0.0218,0.1529,-0.1529,False,True,1,box,0.0,0.02,0.3,0.1,box,1.0,0.04,0.04,0.04,1.1,0.7,0.4,-0.3,ee,False,-0.6,0.0,0.05,script_1|reach_only|left_right,0.0,0.49,0.0,-1.88,-0.0,2.46,0.79,0.01,0.9,-0.0,0.19,-0.0,0.62,0.01,0.001,-0.079,0.008,0.041,0.019,-0.44,goal_sequence,4,target,0.15000000596046448,0.0,0.019999999552965164,0.1528332464713148,target_1,0.15000000596046448,0.10000000149011612,0.019999999552965164,0.17192440626147432,target_2,-0.10000000149011612,0.0,0.019999999552965164,0.19712432770033872,target_3,-0.10000000149011612,0.10000000149011612,0.019999999552965164,0.2122686995595661,False,20
1,22,PICK_AND_PLACE,0.978,-0.006,-0.209,-1.0,0.069,0.0,0.126,0.222,-0.001,-0.577,0.038,AGARRADA,0.071,0.016,0.114,target,0,0.15,0.0,0.02,0.0202,0.1245,-0.1245,False,True,1,box,0.0,0.02,0.3,0.1,box,1.0,0.04,0.04,0.04,1.1,0.7,0.4,-0.3,ee,False,-0.6,0.0,0.05,script_1|reach_only|left_right,0.0,0.61,0.0,-1.72,-0.0,2.32,0.79,-0.0,2.02,-0.0,2.06,0.02,-1.04,-0.01,0.001,-0.001,0.0,0.21,-0.06,-0.578,goal_sequence,4,target,0.15000000596046448,0.0,0.019999999552965164,0.12382649565337774,target_1,0.15000000596046448,0.10000000149011612,0.019999999552965164,0.1487716413707111,target_2,-0.10000000149011612,0.0,0.019999999552965164,0.19578815233221408,target_3,-0.10000000149011612,0.10000000149011612,0.019999999552965164,0.21244528906050558,False,21
1,23,PICK_AND_PLACE,0.999,-0.003,0.044,-1.0,0.093,0.0,0.118,0.295,-0.001,0.058,0.035,AGARRADA,0.092,0.015,0.11,target,0,0.15,0.0,0.02,0.0171,0.1083,-0.1083,False,True,1,box,0.0,0.02,0.3,0.1,box,1.0,0.04,0.04,0.04,1.1,0.7,0.4,-0.3,ee,False,-0.6,0.0,0.05,script_1|reach_only|left_right,-0.0,0.7,0.0,-1.6,-0.0,2.28,0.79,-0.0,0.64,0.0,1.25,0.0,-0.33,-0.0,0.003,0.008,0.007,0.297,-0.012,0.057,goal_sequence,4,target,0.15000000596046448,0.0,0.019999999552965164,0.10811568235866703,target_1,0.15000000596046448,0.10000000149011612,0.019999999552965164,0.13670772116160787,target_2,-0.10000000149011612,0.0,0.019999999552965164,0.21257704639182204,target_3,-0.10000000149011612,0.10000000149011612,0.019999999552965164,0.22844912104446932,False,22
1,24,PICK_AND_PLACE,0.977,-0.001,0.212,-1.0,0.116,-0.0,0.119,0.248,-0.001,0.071,0.035,AGARRADA,0.115,0.015,0.111,target,0,0.15,0.0,0.02,0.0166,0.0991,-0.0991,False,True,1,box,0.0,0.02,0.3,0.1,box,1.0,0.04,0.04,0.04,1.1,0.7,0.4,-0.3,ee,False,-0.6,0.0,0.05,script_1|reach_only|left_right,-0.0,0.76,0.0,-1.48,-0.0,2.23,0.79,-0.0,0.57,-0.0,1.17,0.0,-0.38,-0.0,0.003,0.004,0.007,0.249,-0.016,0.071,goal_sequence,4,target,0.15000000596046448,0.0,0.019999999552965164,0.0986458336605905,target_1,0.15000000596046448,0.10000000149011612,0.019999999552965164,0.12934836973040145,target_2,-0.10000000149011612,0.0,0.019999999552965164,0.23394657664114316,target_3,-0.10000000149011612,0.10000000149011612,0.019999999552965164,0.248457241744792,False,23
1,25,PICK_AND_PLACE,0.951,0.001,0.31,-1.0,0.135,-0.0,0.123,0.218,0.0,0.146,0.035,AGARRADA,0.133,0.014,0.115,target,0,0.15,0.0,0.02,0.016,0.0978,-0.0978,False,False,0,box,0.0,0.02,0.3,0.1,box,1.0,0.04,0.04,0.04,1.1,0.7,0.4,-0.3,ee,False,-0.6,0.0,0.05,script_1|reach_only|left_right,-0.0,0.82,0.0,-1.36,-0.0,2.17,0.79,0.0,0.41,-0.0,1.09,0.0,-0.44,-0.0,0.003,0.004,0.007,0.22,-0.017,0.146,goal_sequence,4,target,0.15000000596046448,0.0,0.019999999552965164,0.09751923034762143,target_1,0.15000000596046448,0.10000000149011612,0.019999999552965164,0.12926716730822418,target_2,-0.10000000149011612,0.0,0.019999999552965164,0.252011906026939,target_3,-0.10000000149011612,0.10000000149011612,0.019999999552965164,0.2659135217239445,False,24
1,26,PICK_AND_PLACE,0.904,0.002,0.429,-1.0,0.15,0.0,0.132,0.205,0.0,0.283,0.035,AGARRADA,0.149,0.013,0.124,target,0,0.15,0.0,0.02,0.0152,0.1053,-0.1053,False,False,0,box,0.0,0.02,0.3,0.1,box,1.0,0.04,0.04,0.04,1.1,0.7,0.4,-0.3,ee,False,-0.6,0.0,0.05,script_1|reach_only|left_right,-0.0,0.86,0.0,-1.26,-0.0,2.11,0.79,0.0,0.16,-0.0,0.97,-0.0,-0.45,0.0,0.003,0.002,0.007,0.207,-0.017,0.282,goal_sequence,4,target,0.15000000596046448,0.0,0.019999999552965164,0.10481412168646079,target_1,0.15000000596046448,0.10000000149011612,0.019999999552965164,0.13559498650091906,target_2,-0.10000000149011612,0.0,0.019999999552965164,0.27015921386297576,target_3,-0.10000000149011612,0.10000000149011612,0.019999999552965164,0.2835242513337109,False,25
1,27,PICK_AND_PLACE,-0.001,-0.0,-1.0,-1.0,0.16,-0.0,0.12,-0.178,-0.0,-0.987,0.037,AGARRADA,0.159,0.013,0.11,target,0,0.15,0.0,0.02,0.016,0.0913,-0.0913,False,False,0,box,0.0,0.02,0.3,0.1,box,1.0,0.04,0.04,0.04,1.1,0.7,0.4,-0.3,ee,False,-0.6,0.0,0.05,script_1|reach_only|left_right,-0.0,0.89,0.0,-1.26,-0.0,2.19,0.79,-0.0,1.35,0.0,-0.03,0.0,0.59,-0.0,0.003,-0.043,0.005,-0.183,-0.019,-0.986,goal_sequence,4,target,0.15000000596046448,0.0,0.019999999552965164,0.09137833426572158,target_1,0.15000000596046448,0.10000000149011612,0.019999999552965164,0.12549900490624677,target_2,-0.10000000149011612,0.0,0.019999999552965164,0.27449954617876227,target_3,-0.10000000149011612,0.10000000149011612,0.019999999552965164,0.2876629992050188,False,26
1,28,PICK_AND_PLACE,-0.093,0.0,-0.809,-1.0,0.148,-0.0,0.071,-0.373,0.0,-1.131,0.038,AGARRADA,0.146,0.012,0.062,target,0,0.15,0.0,0.02,0.0157,0.0434,-0.0434,False,False,0,box,0.0,0.02,0.3,0.1,box,1.0,0.04,0.04,0.04,1.1,0.7,0.4,-0.3,ee,False,-0.6,0.0,0.05,script_1|reach_only|left_right,-0.0,0.96,0.0,-1.26,-0.0,2.2,0.79,0.0,1.54,-0.0,0.03,0.0,0.09,0.0,0.003,0.009,0.004,-0.385,-0.018,-1.128,goal_sequence,4,target,0.15000000596046448,0.0,0.019999999552965164,0.043863425370514304,target_1,0.15000000596046448,0.10000000149011612,0.019999999552965164,0.09759098497041167,target_2,-0.10000000149011612,0.0,0.019999999552965164,0.24984795530619827,target_3,-0.10000000149011612,0.10000000149011612,0.019999999552965164,0.2646204849080065,False,27
1,29,PICK_AND_PLACE,0.007,0.0,-0.172,-1.0,0.137,-0.0,0.032,-0.309,0.0,-0.833,0.038,AGARRADA,0.135,0.011,0.023,target,0,0.15,0.0,0.02,0.0147,0.0191,-0.0191,False,False,0,box,0.0,0.02,0.3,0.1,box,1.0,0.04,0.04,0.04,1.1,0.7,0.4,-0.3,ee,False,-0.6,0.0,0.05,script_1|reach_only|left_right,-0.0,1.01,0.0,-1.26,-0.0,2.22,0.79,-0.0,1.14,0.0,-0.01,0.0,0.18,-0.0,0.003,0.041,0.004,-0.317,-0.018,-0.831,goal_sequence,4,target,0.15000000596046448,0.0,0.019999999552965164,0.01884144849782465,target_1,0.15000000596046448,0.10000000149011612,0.019999999552965164,0.09030504109260375,target_2,-0.10000000149011612,0.0,0.019999999552965164,0.23527643465302,target_3,-0.10000000149011612,0.10000000149011612,0.019999999552965164,0.25130658759427194,False,28
1,30,PICK_AND_PLACE,0.059,0.0,-0.01,-1.0,0.141,-0.0,0.023,0.109,-0.0,0.132,0.036,AGARRADA,0.137,0.011,0.021,target,0,0.15,0.0,0.02,0.012,0.0172,-0.0172,False,False,0,box,0.0,0.02,0.3,0.1,box,1.0,0.04,0.04,0.04,1.1,0.7,0.4,-0.3,ee,False,-0.6,0.0,0.05,script_1|reach_only|left_right,-0.0,1.02,0.0,-1.26,-0.0,2.27,0.79,0.0,-0.16,-0.0,-0.05,0.0,0.36,-0.0,0.002,-0.005,0.004,0.111,0.004,0.13,goal_sequence,4,target,0.15000000596046448,0.0,0.019999999552965164,0.017058726677750057,target_1,0.15000000596046448,0.10000000149011612,0.019999999552965164,0.089949988444173,target_2,-0.10000000149011612,0.0,0.019999999552965164,0.23725724584764343,target_3,-0.10000000149011612,0.10000000149011612,0.019999999552965164,0.2531620053887427,False,29
1,31,PICK_AND_PLACE,0.087,0.0,0.996,1.0,0.135,-0.0,0.034,0.132,0.0,0.516,0.075,ABERTA,0.141,0.011,0.02,target,0,0.15,0.0,0.02,0.0185,0.0147,-0.0147,False,False,0,box,0.0,0.02,0.3,0.1,box,1.0,0.04,0.04,0.04,1.1,0.7,0.4,-0.3,ee,False,-0.6,0.0,0.05,script_1|reach_only|left_right,-0.0,1.0,0.0,-1.27,-0.0,2.22,0.79,0.0,-0.77,0.0,-0.05,0.0,-0.36,-0.0,0.001,0.001,0.004,0.001,-0.001,-0.007,goal_sequence,4,target,0.15000000596046448,0.0,0.019999999552965164,0.014212674177944013,target_1,0.15000000596046448,0.10000000149011612,0.019999999552965164,0.0894539008234357,target_2,-0.10000000149011612,0.0,0.019999999552965164,0.24125090822261366,target_3,-0.10000000149011612,0.10000000149011612,0.019999999552965164,0.25690854595259505,False,30
1,32,PICK_AND_PLACE,0.152,0.0,0.988,1.0,0.141,-0.0,0.062,0.312,0.0,0.949,0.079,ABERTA,0.141,0.011,0.02,target,0,0.15,0.0,0.02,0.0433,0.0147,-0.0147,False,False,0,box,0.0,0.02,0.3,0.1,box,1.0,0.04,0.04,0.04,1.1,0.7,0.4,-0.3,ee,False,-0.6,0.0,0.05,script_1|reach_only|left_right,-0.0,0.95,0.0,-1.28,-0.0,2.21,0.79,0.0,-1.32,0.0,-0.05,0.0,-0.13,0.0,0.0,0.0,0.004,-0.0,0.0,-0.0,goal_sequence,4,target,0.15000000596046448,0.0,0.019999999552965164,0.014212674177944013,target_1,0.15000000596046448,0.10000000149011612,0.019999999552965164,0.0894539008234357,target_2,-0.10000000149011612,0.0,0.019999999552965164,0.24125090822261366,target_3,-0.10000000149011612,0.10000000149011612,0.019999999552965164,0.25690854595259505,False,31
1,33,PICK_AND_PLACE,0.125,0.0,0.992,1.0,0.148,-0.0,0.102,0.144,0.0,0.647,0.08,ABERTA,0.141,0.011,0.02,target,0,0.15,0.0,0.02,0.0827,0.0147,-0.0147,False,False,0,box,0.0,0.02,0.3,0.1,box,1.0,0.04,0.04,0.04,1.1,0.7,0.4,-0.3,ee,False,-0.6,0.0,0.05,script_1|reach_only|left_right,-0.0,0.9,0.0,-1.28,-0.0,2.17,0.79,0.0,-0.89,0.0,0.01,0.0,-0.31,0.0,0.0,-0.0,0.004,-0.0,0.0,-0.0,goal_sequence,4,target,0.15000000596046448,0.0,0.019999999552965164,0.014212674177944013,target_1,0.15000000596046448,0.10000000149011612,0.019999999552965164,0.0894539008234357,target_2,-0.10000000149011612,0.0,0.019999999552965164,0.24125090822261366,target_3,-0.10000000149011612,0.10000000149011612,0.019999999552965164,0.25690854595259505,False,32
1,34,PICK_AND_PLACE,0.08,0.0,0.997,1.0,0.148,0.0,0.134,0.162,0.001,0.891,0.08,ABERTA,0.141,0.011,0.02,target,0,0.15,0.0,0.02,0.1149,0.0147,-0.0147,False,False,0,box,0.0,0.02,0.3,0.1,box,1.0,0.04,0.04,0.04,1.1,0.7,0.4,-0.3,ee,False,-0.6,0.0,0.05,script_1|reach_only|left_right,-0.0,0.85,0.0,-1.27,-0.0,2.11,0.79,0.0,-1.2,0.0,0.07,0.0,-0.47,0.0,0.0,-0.0,0.004,-0.0,0.0,-0.0,goal_sequence,4,target,0.15000000596046448,0.0,0.019999999552965164,0.014212674177944013,target_1,0.15000000596046448,0.10000000149011612,0.019999999552965164,0.0894539008234357,target_2,-0.10000000149011612,0.0,0.019999999552965164,0.24125090822261366,target_3,-0.10000000149011612,0.10000000149011612,0.019999999552965164,0.25690854595259505,False,33
1,35,PICK_AND_PLACE,0.5,-0.0,-0.866,1.0,0.172,0.0,0.151,0.066,0.0,-0.443,0.08,ABERTA,0.141,0.011,0.02,target_1,1,0.15,0.1,0.02,0.1357,0.0892,-0.0892,False,False,0,box,0.0,0.02,0.3,0.1,box,1.0,0.04,0.04,0.04,1.1,0.7,0.4,-0.3,ee,False,-0.6,0.0,0.05,script_1|reach_only|left_right,-0.0,0.87,0.0,-1.22,-0.0,2.16,0.79,0.0,0.92,-0.0,0.47,-0.0,0.39,-0.0,0.0,-0.0,0.004,-0.0,0.0,-0.0,goal_sequence,4,target,0.15000000596046448,0.0,0.019999999552965164,0.014212674177944013,target_1,0.15000000596046448,0.10000000149011612,0.019999999552965164,0.0894539008234357,target_2,-0.10000000149011612,0.0,0.019999999552965164,0.24125090822261366,target_3,-0.10000000149011612,0.10000000149011612,0.019999999552965164,0.25690854595259505,True,34
1,36,PICK_AND_PLACE,-0.688,0.246,-0.683,1.0,0.151,0.01,0.118,-0.326,0.139,-0.644,0.08,ABERTA,0.141,0.011,0.02,target_1,1,0.15,0.1,0.02,0.0983,0.0892,-0.0892,False,False,0,box,0.0,0.02,0.3,0.1,box,1.0,0.04,0.04,0.04,1.1,0.7,0.4,-0.3,ee,False,-0.6,0.0,0.05,script_1|reach_only|left_right,0.01,0.88,0.0,-1.28,-0.0,2.16,0.8,0.18,0.48,0.01,-0.61,-0.01,-0.01,0.12,0.0,-0.0,0.004,-0.0,0.0,-0.0,goal_sequence,4,target,0.15000000596046448,0.0,0.019999999552965164,0.014212674177944013,target_1,0.15000000596046448,0.10000000149011612,0.019999999552965164,0.0894539008234357,target_2,-0.10000000149011612,0.0,0.019999999552965164,0.24125090822261366,target_3,-0.10000000149011612,0.10000000149011612,0.019999999552965164,0.25690854595259505,False,35
1,37,PICK_AND_PLACE,-0.963,0.159,0.215,1.0,0.121,0.017,0.093,-0.302,0.06,-0.228,0.08,ABERTA,0.141,0.011,0.02,target_1,1,0.15,0.1,0.02,0.0762,0.0892,-0.0892,False,False,0,box,0.0,0.02,0.3,0.1,box,1.0,0.04,0.04,0.04,1.1,0.7,0.4,-0.3,ee,False,-0.6,0.0,0.05,script_1|reach_only|left_right,0.02,0.84,0.0,-1.39,-0.0,2.18,0.81,0.08,-0.31,0.01,-1.09,-0.01,0.23,0.08,0.0,-0.0,0.004,-0.0,0.0,-0.0,goal_sequence,4,target,0.15000000596046448,0.0,0.019999999552965164,0.014212674177944013,target_1,0.15000000596046448,0.10000000149011612,0.019999999552965164,0.0894539008234357,target_2,-0.10000000149011612,0.0,0.019999999552965164,0.24125090822261366,target_3,-0.10000000149011612,0.10000000149011612,0.019999999552965164,0.25690854595259505,False,36
1,38,PICK_AND_PLACE,0.128,-0.036,-0.423,1.0,0.129,0.015,0.074,-0.076,-0.019,-0.531,0.08,ABERTA,0.141,0.011,0.02,target_1,1,0.15,0.1,0.02,0.0552,0.0892,-0.0892,False,False,0,box,0.0,0.02,0.3,0.1,box,1.0,0.04,0.04,0.04,1.1,0.7,0.4,-0.3,ee,False,-0.6,0.0,0.05,script_1|reach_only|left_right,0.02,0.88,0.0,-1.39,-0.0,2.26,0.81,-0.02,0.81,-0.0,0.01,-0.0,0.61,-0.02,0.0,-0.0,0.004,0.0,0.0,0.0,goal_sequence,4,target,0.15000000596046448,0.0,0.019999999552965164,0.014212674177944013,target_1,0.15000000596046448,0.10000000149011612,0.019999999552965164,0.0894539008234357,target_2,-0.10000000149011612,0.0,0.019999999552965164,0.24125090822261366,target_3,-0.10000000149011612,0.10000000149011612,0.019999999552965164,0.25690854595259505,False,37
1,39,PICK_AND_PLACE,0.055,-0.018,-0.199,1.0,0.129,0.014,0.061,-0.002,-0.006,-0.105,0.08,ABERTA,0.141,0.011,0.02,target_1,1,0.15,0.1,0.02,0.0428,0.0892,-0.0892,False,False,0,box,0.0,0.02,0.3,0.1,box,1.0,0.04,0.04,0.04,1.1,0.7,0.4,-0.3,ee,False,-0.6,0.0,0.05,script_1|reach_only|left_right,0.02,0.9,0.0,-1.39,-0.0,2.28,0.81,-0.01,0.19,-0.0,0.04,0.0,0.15,-0.01,0.0,-0.0,0.004,0.0,0.0,0.0,goal_sequence,4,target,0.15000000596046448,0.0,0.019999999552965164,0.014212674177944013,target_1,0.15000000596046448,0.10000000149011612,0.019999999552965164,0.0894539008234357,target_2,-0.10000000149011612,0.0,0.019999999552965164,0.24125090822261366,target_3,-0.10000000149011612,0.10000000149011612,0.019999999552965164,0.25690854595259505,False,38
1,40,PICK_AND_PLACE,0.039,-0.011,-0.104,1.0,0.13,0.014,0.057,0.01,-0.004,-0.035,0.08,ABERTA,0.141,0.011,0.02,target_1,1,0.15,0.1,0.02,0.0382,0.0892,-0.0892,False,False,0,box,0.0,0.02,0.3,0.1,box,1.0,0.04,0.04,0.04,1.1,0.7,0.4,-0.3,ee,False,-0.6,0.0,0.05,script_1|reach_only|left_right,0.02,0.91,0.0,-1.38,-0.0,2.29,0.81,-0.0,0.07,-0.0,0.03,0.0,0.09,-0.01,-0.0,-0.0,0.004,0.0,0.0,0.0,goal_sequence,4,target,0.15000000596046448,0.0,0.019999999552965164,0.014212674177944013,target_1,0.15000000596046448,0.10000000149011612,0.019999999552965164,0.0894539008234357,target_2,-0.10000000149011612,0.0,0.019999999552965164,0.24125090822261366,target_3,-0.10000000149011612,0.10000000149011612,0.019999999552965164,0.25690854595259505,False,39
1,41,PICK_AND_PLACE,0.03,-0.008,-0.077,1.0,0.131,0.014,0.053,0.003,-0.003,-0.026,0.08,ABERTA,0.141,0.011,0.02,target_1,1,0.15,0.1,0.02,0.035,0.0892,-0.0892,False,False,0,box,0.0,0.02,0.3,0.1,box,1.0,0.04,0.04,0.04,1.1,0.7,0.4,-0.3,ee,False,-0.6,0.0,0.05,script_1|reach_only|left_right,0.02,0.92,0.0,-1.38,-0.0,2.3,0.81,-0.0,0.06,-0.0,0.03,0.0,0.03,-0.0,-0.0,-0.0,0.004,0.0,0.0,0.0,goal_sequence,4,target,0.15000000596046448,0.0,0.019999999552965164,0.014212674177944013,target_1,0.15000000596046448,0.10000000149011612,0.019999999552965164,0.0894539008234357,target_2,-0.10000000149011612,0.0,0.019999999552965164,0.24125090822261366,target_3,-0.10000000149011612,0.10000000149011612,0.019999999552965164,0.25690854595259505,False,40
1,42,PICK_AND_PLACE,0.025,-0.006,-0.06,1.0,0.131,0.013,0.051,0.002,-0.002,-0.02,0.08,ABERTA,0.141,0.011,0.02,target_1,1,0.15,0.1,0.02,0.0324,0.0892,-0.0892,False,False,0,box,0.0,0.02,0.3,0.1,box,1.0,0.04,0.04,0.04,1.1,0.7,0.4,-0.3,ee,False,-0.6,0.0,0.05,script_1|reach_only|left_right,0.02,0.92,0.0,-1.38,-0.0,2.3,0.81,-0.0,0.05,-0.0,0.03,0.0,0.02,-0.0,-0.0,-0.0,0.004,0.0,0.0,0.0,goal_sequence,4,target,0.15000000596046448,0.0,0.019999999552965164,0.014212674177944013,target_1,0.15000000596046448,0.10000000149011612,0.019999999552965164,0.0894539008234357,target_2,-0.10000000149011612,0.0,0.019999999552965164,0.24125090822261366,target_3,-0.10000000149011612,0.10000000149011612,0.019999999552965164,0.25690854595259505,False,41
1,43,PICK_AND_PLACE,0.024,-0.005,-0.055,1.0,0.132,0.013,0.049,0.002,-0.002,-0.018,0.08,ABERTA,0.141,0.011,0.02,target_1,1,0.15,0.1,0.02,0.0302,0.0892,-0.0892,False,False,0,box,0.0,0.02,0.3,0.1,box,1.0,0.04,0.04,0.04,1.1,0.7,0.4,-0.3,ee,False,-0.6,0.0,0.05,script_1|reach_only|left_right,0.02,0.93,0.0,-1.37,-0.0,2.3,0.8,-0.0,0.04,-0.0,0.03,0.0,0.01,-0.0,0.0,-0.0,0.004,0.0,0.0,0.0,goal_sequence,4,target,0.15000000596046448,0.0,0.019999999552965164,0.014212674177944013,target_1,0.15000000596046448,0.10000000149011612,0.019999999552965164,0.0894539008234357,target_2,-0.10000000149011612,0.0,0.019999999552965164,0.24125090822261366,target_3,-0.10000000149011612,0.10000000149011612,0.019999999552965164,0.25690854595259505,False,42
1,44,PICK_AND_PLACE,0.026,-0.005,-0.054,1.0,0.132,0.013,0.046,0.003,-0.002,-0.018,0.08,ABERTA,0.141,0.011,0.02,target_1,1,0.15,0.1,0.02,0.0279,0.0892,-0.0892,False,False,0,box,0.0,0.02,0.3,0.1,box,1.0,0.04,0.04,0.04,1.1,0.7,0.4,-0.3,ee,False,-0.6,0.0,0.05,script_1|reach_only|left_right,0.02,0.94,0.0,-1.37,-0.0,2.3,0.8,-0.0,0.04,-0.0,0.03,0.0,0.01,-0.0,0.0,-0.0,0.004,0.0,0.0,0.0,goal_sequence,4,target,0.15000000596046448,0.0,0.019999999552965164,0.014212674177944013,target_1,0.15000000596046448,0.10000000149011612,0.019999999552965164,0.0894539008234357,target_2,-0.10000000149011612,0.0,0.019999999552965164,0.24125090822261366,target_3,-0.10000000149011612,0.10000000149011612,0.019999999552965164,0.25690854595259505,False,43
1,45,PICK_AND_PLACE,0.028,-0.005,-0.053,1.0,0.132,0.013,0.044,0.003,-0.002,-0.018,0.08,ABERTA,0.141,0.011,0.02,target_1,1,0.15,0.1,0.02,0.0257,0.0892,-0.0892,False,False,0,box,0.0,0.02,0.3,0.1,box,1.0,0.04,0.04,0.04,1.1,0.7,0.4,-0.3,ee,False,-0.6,0.0,0.05,script_1|reach_only|left_right,0.02,0.94,0.0,-1.36,-0.0,2.31,0.8,-0.0,0.04,-0.0,0.03,0.0,0.01,-0.0,0.0,-0.0,0.004,0.0,0.0,0.0,goal_sequence,4,target,0.15000000596046448,0.0,0.019999999552965164,0.014212674177944013,target_1,0.15000000596046448,0.10000000149011612,0.019999999552965164,0.0894539008234357,target_2,-0.10000000149011612,0.0,0.019999999552965164,0.24125090822261366,target_3,-0.10000000149011612,0.10000000149011612,0.019999999552965164,0.25690854595259505,False,44
1,46,PICK_AND_PLACE,0.03,-0.005,-0.052,1.0,0.133,0.012,0.042,0.003,-0.002,-0.017,0.08,ABERTA,0.141,0.011,0.02,target_1,1,0.15,0.1,0.02,0.0236,0.0892,-0.0892,False,False,0,box,0.0,0.02,0.3,0.1,box,1.0,0.04,0.04,0.04,1.1,0.7,0.4,-0.3,ee,False,-0.6,0.0,0.05,script_1|reach_only|left_right,0.02,0.95,0.0,-1.36,-0.0,2.31,0.8,-0.0,0.04,-0.0,0.03,0.0,0.01,-0.0,0.0,-0.0,0.004,0.0,0.0,0.0,goal_sequence,4,target,0.15000000596046448,0.0,0.019999999552965164,0.014212674177944013,target_1,0.15000000596046448,0.10000000149011612,0.019999999552965164,0.0894539008234357,target_2,-0.10000000149011612,0.0,0.019999999552965164,0.24125090822261366,target_3,-0.10000000149011612,0.10000000149011612,0.019999999552965164,0.25690854595259505,False,45
1,47,PICK_AND_PLACE,0.032,-0.005,-0.05,1.0,0.133,0.012,0.04,0.003,-0.002,-0.017,0.08,ABERTA,0.141,0.011,0.02,target_1,1,0.15,0.1,0.02,0.0215,0.0892,-0.0892,False,False,0,box,0.0,0.02,0.3,0.1,box,1.0,0.04,0.04,0.04,1.1,0.7,0.4,-0.3,ee,False,-0.6,0.0,0.05,script_1|reach_only|left_right,0.01,0.95,0.0,-1.35,-0.0,2.31,0.8,-0.0,0.05,-0.0,0.04,0.0,0.01,-0.0,0.0,-0.0,0.004,0.0,0.0,0.0,goal_sequence,4,target,0.15000000596046448,0.0,0.019999999552965164,0.014212674177944013,target_1,0.15000000596046448,0.10000000149011612,0.019999999552965164,0.0894539008234357,target_2,-0.10000000149011612,0.0,0.019999999552965164,0.24125090822261366,target_3,-0.10000000149011612,0.10000000149011612,0.019999999552965164,0.25690854595259505,False,46
1,48,PICK_AND_PLACE,0.035,-0.004,-0.049,1.0,0.134,0.012,0.038,0.004,-0.002,-0.016,0.08,ABERTA,0.141,0.011,0.02,target_1,1,0.15,0.1,0.02,0.0194,0.0892,-0.0892,False,False,0,box,0.0,0.02,0.3,0.1,box,1.0,0.04,0.04,0.04,1.1,0.7,0.4,-0.3,ee,False,-0.6,0.0,0.05,script_1|reach_only|left_right,0.01,0.96,0.0,-1.35,-0.0,2.31,0.8,-0.0,0.05,-0.0,0.04,0.0,0.0,-0.0,0.0,-0.0,0.004,0.0,0.0,0.0,goal_sequence,4,target,0.15000000596046448,0.0,0.019999999552965164,0.014212674177944013,target_1,0.15000000596046448,0.10000000149011612,0.019999999552965164,0.0894539008234357,target_2,-0.10000000149011612,0.0,0.019999999552965164,0.24125090822261366,target_3,-0.10000000149011612,0.10000000149011612,0.019999999552965164,0.25690854595259505,False,47
1,49,PICK_AND_PLACE,0.038,-0.004,-0.046,1.0,0.134,0.012,0.036,0.004,-0.001,-0.015,0.08,ABERTA,0.141,0.011,0.02,target_1,1,0.15,0.1,0.02,0.0175,0.0892,-0.0892,False,False,0,box,0.0,0.02,0.3,0.1,box,1.0,0.04,0.04,0.04,1.1,0.7,0.4,-0.3,ee,False,-0.6,0.0,0.05,script_1|reach_only|left_right,0.01,0.96,0.0,-1.34,-0.0,2.31,0.8,-0.0,0.05,-0.0,0.04,0.0,0.0,-0.0,0.0,-0.0,0.004,0.0,0.0,0.0,goal_sequence,4,target,0.15000000596046448,0.0,0.019999999552965164,0.014212674177944013,target_1,0.15000000596046448,0.10000000149011612,0.019999999552965164,0.0894539008234357,target_2,-0.10000000149011612,0.0,0.019999999552965164,0.24125090822261366,target_3,-0.10000000149011612,0.10000000149011612,0.019999999552965164,0.25690854595259505,False,48
1,50,PICK_AND_PLACE,0.042,-0.003,-0.043,1.0,0.135,0.012,0.035,0.005,-0.001,-0.014,0.08,ABERTA,0.141,0.011,0.02,target_1,1,0.15,0.1,0.02,0.0156,0.0892,-0.0892,False,False,0,box,0.0,0.02,0.3,0.1,box,1.0,0.04,0.04,0.04,1.1,0.7,0.4,-0.3,ee,False,-0.6,0.0,0.05,script_1|reach_only|left_right,0.01,0.97,0.0,-1.34,-0.0,2.31,0.8,-0.0,0.04,-0.0,0.05,0.0,-0.0,-0.0,0.0,-0.0,0.004,0.0,0.0,0.0,goal_sequence,4,target,0.15000000596046448,0.0,0.019999999552965164,0.014212674177944013,target_1,0.15000000596046448,0.10000000149011612,0.019999999552965164,0.0894539008234357,target_2,-0.10000000149011612,0.0,0.019999999552965164,0.24125090822261366,target_3,-0.10000000149011612,0.10000000149011612,0.019999999552965164,0.25690854595259505,False,49
1,51,PICK_AND_PLACE,0.046,-0.003,-0.039,-1.0,0.136,0.012,0.033,0.007,-0.001,-0.006,0.036,AGARRADA,0.141,0.011,0.02,target_1,1,0.15,0.1,0.02,0.0142,0.0892,-0.0892,False,False,0,box,0.0,0.02,0.3,0.1,box,1.0,0.04,0.04,0.04,1.1,0.7,0.4,-0.3,ee,False,-0.6,0.0,0.05,script_1|reach_only|left_right,0.01,0.98,0.0,-1.33,-0.0,2.31,0.8,-0.0,0.03,0.0,0.05,0.0,-0.01,-0.01,-0.001,0.002,0.004,0.001,0.002,-0.002,goal_sequence,4,target,0.15000000596046448,0.0,0.019999999552965164,0.014212674177944013,target_1,0.15000000596046448,0.10000000149011612,0.019999999552965164,0.0894539008234357,target_2,-0.10000000149011612,0.0,0.019999999552965164,0.24125090822261366,target_3,-0.10000000149011612,0.10000000149011612,0.019999999552965164,0.25690854595259505,False,50
1,52,PICK_AND_PLACE,-0.008,0.001,1.0,-1.0,0.126,0.011,0.042,0.051,0.001,0.421,0.037,AGARRADA,0.131,0.012,0.03,target_1,1,0.15,0.1,0.02,0.0133,0.0906,-0.0906,False,False,0,box,0.0,0.02,0.3,0.1,box,1.0,0.04,0.04,0.04,1.1,0.7,0.4,-0.3,ee,False,-0.6,0.0,0.05,script_1|reach_only|left_right,0.01,0.95,0.0,-1.34,-0.0,2.24,0.8,0.0,-0.7,0.0,-0.11,0.0,-0.48,0.0,0.005,-0.006,0.008,0.053,0.021,0.421,goal_sequence,4,target,0.15000000596046448,0.0,0.019999999552965164,0.024596752538462923,target_1,0.15000000596046448,0.10000000149011612,0.019999999552965164,0.09058145780290149,target_2,-0.10000000149011612,0.0,0.019999999552965164,0.23152753766533765,target_3,-0.10000000149011612,0.10000000149011612,0.019999999552965164,0.2473964449211726,False,51
1,53,PICK_AND_PLACE,0.101,0.002,0.995,-1.0,0.128,0.012,0.064,0.221,0.003,0.722,0.038,AGARRADA,0.134,0.013,0.053,target_1,1,0.15,0.1,0.02,0.013,0.0946,-0.0946,False,False,0,box,0.0,0.02,0.3,0.1,box,1.0,0.04,0.04,0.04,1.1,0.7,0.4,-0.3,ee,False,-0.6,0.0,0.05,script_1|reach_only|left_right,0.01,0.91,0.0,-1.36,-0.0,2.23,0.8,0.0,-1.06,0.0,-0.1,0.0,-0.11,0.0,0.004,-0.019,0.008,0.231,0.022,0.727,goal_sequence,4,target,0.15000000596046448,0.0,0.019999999552965164,0.0389101557467867,target_1,0.15000000596046448,0.10000000149011612,0.019999999552965164,0.09441398455482856,target_2,-0.10000000149011612,0.0,0.019999999552965164,0.2366727714099758,target_3,-0.10000000149011612,0.10000000149011612,0.019999999552965164,0.2518213672152521,False,52
1,54,PICK_AND_PLACE,0.098,0.002,0.995,-1.0,0.133,0.012,0.098,0.222,0.004,0.859,0.039,AGARRADA,0.139,0.014,0.087,target_1,1,0.15,0.1,0.02,0.0129,0.1099,-0.1099,False,False,0,box,0.0,0.02,0.3,0.1,box,1.0,0.04,0.04,0.04,1.1,0.7,0.4,-0.3,ee,False,-0.6,0.0,0.05,script_1|reach_only|left_right,0.01,0.85,0.0,-1.36,-0.0,2.2,0.8,-0.0,-1.22,0.0,-0.04,0.0,-0.23,0.0,0.003,-0.04,0.009,0.234,0.023,0.865,goal_sequence,4,target,0.15000000596046448,0.0,0.019999999552965164,0.06932532142754853,target_1,0.15000000596046448,0.10000000149011612,0.019999999552965164,0.10957189624777375,target_2,-0.10000000149011612,0.0,0.019999999552965164,0.24860812692303158,target_3,-0.10000000149011612,0.10000000149011612,0.019999999552965164,0.2626899332454104,False,53
1,55,PICK_AND_PLACE,0.059,0.001,0.998,-1.0,0.135,0.012,0.136,0.139,0.002,0.779,0.039,AGARRADA,0.142,0.015,0.125,target_1,1,0.15,0.1,0.02,0.0131,0.1355,-0.1355,False,False,0,box,0.0,0.02,0.3,0.1,box,1.0,0.04,0.04,0.04,1.1,0.7,0.4,-0.3,ee,False,-0.6,0.0,0.05,script_1|reach_only|left_right,0.01,0.8,0.0,-1.36,-0.0,2.15,0.8,-0.0,-1.09,0.0,0.02,0.0,-0.39,-0.0,0.003,-0.05,0.01,0.148,0.022,0.784,goal_sequence,4,target,0.15000000596046448,0.0,0.019999999552965164,0.10636728909417961,target_1,0.15000000596046448,0.10000000149011612,0.019999999552965164,0.13532922981589943,target_2,-0.10000000149011612,0.0,0.019999999552965164,0.2642233918772021,target_3,-0.10000000149011612,0.10000000149011612,0.019999999552965164,0.2771533890617491,False,54
1,56,PICK_AND_PLACE,-0.044,-0.002,-0.999,-1.0,0.15,0.012,0.146,-0.012,-0.001,-0.43,0.04,AGARRADA,0.157,0.015,0.133,target_1,1,0.15,0.1,0.02,0.0151,0.1413,-0.1413,False,False,0,box,0.0,0.02,0.3,0.1,box,1.0,0.04,0.04,0.04,1.1,0.7,0.4,-0.3,ee,False,-0.6,0.0,0.05,script_1|reach_only|left_right,0.01,0.79,0.0,-1.37,-0.0,2.23,0.8,0.0,0.61,-0.0,-0.08,-0.0,0.63,0.0,0.004,-0.106,0.002,-0.013,0.022,-0.431,goal_sequence,4,target,0.15000000596046448,0.0,0.019999999552965164,0.11420595438760366,target_1,0.15000000596046448,0.10000000149011612,0.019999999552965164,0.1415733035247223,target_2,-0.10000000149011612,0.0,0.019999999552965164,0.28114587115401424,target_3,-0.10000000149011612,0.10000000149011612,0.019999999552965164,0.29333087311135414,False,55
1,57,PICK_AND_PLACE,-0.004,0.983,-0.181,-1.0,0.141,0.031,0.134,-0.122,0.897,-0.142,0.04,AGARRADA,0.146,0.02,0.121,target_1,1,0.15,0.1,0.02,0.0182,0.1291,-0.1291,False,False,0,box,0.0,0.02,0.3,0.1,box,1.0,0.04,0.04,0.04,1.1,0.7,0.4,-0.3,ee,False,-0.6,0.0,0.05,script_1|reach_only|left_right,0.04,0.82,0.01,-1.34,-0.01,2.16,0.86,1.18,0.28,0.05,0.24,-0.04,-0.54,0.46,0.003,-0.042,-0.025,-0.131,0.513,-0.145,goal_sequence,4,target,0.15000000596046448,0.0,0.019999999552965164,0.10303882830265873,target_1,0.15000000596046448,0.10000000149011612,0.019999999552965164,0.12890694463993538,target_2,-0.10000000149011612,0.0,0.019999999552965164,0.2666777096486284,target_3,-0.10000000149011612,0.10000000149011612,0.019999999552965164,0.2776994797651892,False,56
1,58,PICK_AND_PLACE,0.124,0.991,-0.058,-1.0,0.141,0.074,0.131,-0.049,0.759,-0.016,0.04,AGARRADA,0.147,0.06,0.119,target_1,1,0.15,0.1,0.02,0.0195,0.1063,-0.1063,False,False,0,box,0.0,0.02,0.3,0.1,box,1.0,0.04,0.04,0.04,1.1,0.7,0.4,-0.3,ee,False,-0.6,0.0,0.05,script_1|reach_only|left_right,0.09,0.84,0.02,-1.31,-0.02,2.15,0.9,0.96,0.14,0.08,0.21,-0.07,-0.09,0.27,0.003,-0.038,-0.001,-0.037,1.134,-0.016,goal_sequence,4,target,0.15000000596046448,0.0,0.019999999552965164,0.11580155493030186,target_1,0.15000000596046448,0.10000000149011612,0.019999999552965164,0.10681760268553593,target_2,-0.10000000149011612,0.0,0.019999999552965164,0.2727819657246979,target_3,-0.10000000149011612,0.10000000149011612,0.019999999552965164,0.26909106440727376,False,57
1,59,PICK_AND_PLACE,0.313,0.948,-0.051,-1.0,0.144,0.114,0.129,-0.04,0.702,-0.003,0.04,AGARRADA,0.149,0.106,0.116,target_1,1,0.15,0.1,0.02,0.0165,0.0963,-0.0963,False,False,0,box,0.0,0.02,0.3,0.1,box,1.0,0.04,0.04,0.04,1.1,0.7,0.4,-0.3,ee,False,-0.6,0.0,0.05,script_1|reach_only|left_right,0.14,0.87,0.03,-1.26,-0.02,2.13,0.95,0.91,0.25,0.04,0.43,-0.04,-0.15,0.39,0.003,-0.038,0.003,-0.034,1.132,-0.002,goal_sequence,4,target,0.15000000596046448,0.0,0.019999999552965164,0.14301398567186235,target_1,0.15000000596046448,0.10000000149011612,0.019999999552965164,0.09619251571650606,target_2,-0.10000000149011612,0.0,0.019999999552965164,0.2871463056142435,target_3,-0.10000000149011612,0.10000000149011612,0.019999999552965164,0.2669325772737886,False,58
1,60,PICK_AND_PLACE,0.393,-0.917,0.072,-1.0,0.146,0.125,0.131,0.054,-0.078,0.047,0.04,AGARRADA,0.151,0.14,0.119,target_1,1,0.15,0.1,0.02,0.02,0.1066,-0.1066,False,False,0,box,0.0,0.02,0.3,0.1,box,1.0,0.04,0.04,0.04,1.1,0.7,0.4,-0.3,ee,False,-0.6,0.0,0.05,script_1|reach_only|left_right,0.15,0.88,0.02,-1.22,-0.02,2.11,0.89,-0.08,0.08,-0.05,0.27,0.05,-0.15,-0.45,0.003,-0.038,0.067,0.027,0.246,0.047,goal_sequence,4,target,0.15000000596046448,0.0,0.019999999552965164,0.1714701142374146,target_1,0.15000000596046448,0.10000000149011612,0.019999999552965164,0.1067801477681255,target_2,-0.10000000149011612,0.0,0.019999999552965164,0.3039769741880973,target_3,-0.10000000149011612,0.10000000149011612,0.019999999552965164,0.2727673014078885,False,59
1,61,PICK_AND_PLACE,0.033,-0.243,-0.969,-1.0,0.154,0.117,0.111,-0.233,-0.162,-1.174,0.04,AGARRADA,0.159,0.134,0.097,target_1,1,0.15,0.1,0.02,0.0236,0.0843,-0.0843,False,False,0,box,0.0,0.02,0.3,0.1,box,1.0,0.04,0.04,0.04,1.1,0.7,0.4,-0.3,ee,False,-0.6,0.0,0.05,script_1|reach_only|left_right,0.15,0.92,0.01,-1.22,-0.01,2.17,0.93,-0.1,1.6,-0.1,0.0,0.08,0.48,0.32,0.007,-0.062,0.009,-0.236,-0.263,-1.183,goal_sequence,4,target,0.15000000596046448,0.0,0.019999999552965164,0.15480956030412024,target_1,0.15000000596046448,0.10000000149011612,0.019999999552965164,0.08465222891470223,target_2,-0.10000000149011612,0.0,0.019999999552965164,0.3016057042576011,target_3,-0.10000000149011612,0.10000000149011612,0.019999999552965164,0.2723343546807777,False,60
1,62,PICK_AND_PLACE,-0.032,-0.138,-0.677,-1.0,0.143,0.109,0.063,-0.352,-0.096,-1.082,0.04,AGARRADA,0.147,0.124,0.048,target_1,1,0.15,0.1,0.02,0.0214,0.0367,-0.0367,False,False,0,box,0.0,0.02,0.3,0.1,box,1.0,0.04,0.04,0.04,1.1,0.7,0.4,-0.3,ee,False,-0.6,0.0,0.05,script_1|reach_only|left_right,0.14,0.99,0.0,-1.22,-0.0,2.19,0.93,-0.05,1.48,-0.02,0.04,0.02,0.1,-0.0,-0.0,-0.013,0.002,-0.369,-0.262,-1.09,goal_sequence,4,target,0.15000000596046448,0.0,0.019999999552965164,0.1271573830369152,target_1,0.15000000596046448,0.10000000149011612,0.019999999552965164,0.036999999855016244,target_2,-0.10000000149011612,0.0,0.019999999552965164,0.2777930898369348,target_3,-0.10000000149011612,0.10000000149011612,0.019999999552965164,0.24973786394863265,False,61
1,63,PICK_AND_PLACE,0.026,-0.032,-0.116,-1.0,0.134,0.106,0.028,-0.047,-0.019,-0.211,0.038,AGARRADA,0.141,0.116,0.019,target_1,1,0.15,0.1,0.02,0.0142,0.0184,-0.0184,False,False,0,box,0.0,0.02,0.3,0.1,box,1.0,0.04,0.04,0.04,1.1,0.7,0.4,-0.3,ee,False,-0.6,0.0,0.05,script_1|reach_only|left_right,0.14,1.04,0.0,-1.22,-0.0,2.21,0.93,-0.01,0.3,-0.0,-0.02,0.0,0.22,-0.01,-0.001,0.002,0.001,-0.002,-0.001,0.022,goal_sequence,4,target,0.15000000596046448,0.0,0.019999999552965164,0.11635291189477953,target_1,0.15000000596046448,0.10000000149011612,0.019999999552965164,0.018384777907568355,target_2,-0.10000000149011612,0.0,0.019999999552965164,0.26746588701616114,target_3,-0.10000000149011612,0.10000000149011612,0.019999999552965164,0.24153260788071285,False,62
1,64,PICK_AND_PLACE,0.152,-0.062,0.986,1.0,0.129,0.102,0.026,0.039,-0.027,0.181,0.075,ABERTA,0.141,0.116,0.02,target_1,1,0.15,0.1,0.02,0.0189,0.0184,-0.0184,False,False,0,box,0.0,0.02,0.3,0.1,box,1.0,0.04,0.04,0.04,1.1,0.7,0.4,-0.3,ee,False,-0.6,0.0,0.05,script_1|reach_only|left_right,0.14,1.03,0.0,-1.23,-0.0,2.19,0.93,-0.04,-0.29,-0.0,-0.05,0.0,-0.16,-0.04,-0.0,0.0,0.001,-0.0,-0.0,0.004,goal_sequence,4,target,0.15000000596046448,0.0,0.019999999552965164,0.11634861454821195,target_1,0.15000000596046448,0.10000000149011612,0.019999999552965164,0.018357561374122738,target_2,-0.10000000149011612,0.0,0.019999999552965164,0.2674640176140259,target_3,-0.10000000149011612,0.10000000149011612,0.019999999552965164,0.24153053775982913,False,63
1,65,PICK_AND_PLACE,0.199,-0.021,0.98,1.0,0.134,0.101,0.041,0.227,0.015,0.597,0.079,ABERTA,0.141,0.116,0.02,target_1,1,0.15,0.1,0.02,0.0265,0.0184,-0.0184,False,False,0,box,0.0,0.02,0.3,0.1,box,1.0,0.04,0.04,0.04,1.1,0.7,0.4,-0.3,ee,False,-0.6,0.0,0.05,script_1|reach_only|left_right,0.13,1.01,0.0,-1.24,-0.0,2.2,0.92,-0.02,-0.84,-0.0,-0.06,0.0,0.03,-0.02,-0.0,0.0,0.001,-0.0,-0.0,0.001,goal_sequence,4,target,0.15000000596046448,0.0,0.019999999552965164,0.11634861454821195,target_1,0.15000000596046448,0.10000000149011612,0.019999999552965164,0.018357561374122738,target_2,-0.10000000149011612,0.0,0.019999999552965164,0.2674640176140259,target_3,-0.10000000149011612,0.10000000149011612,0.019999999552965164,0.24153053775982913,False,64
1,66,PICK_AND_PLACE,0.176,-0.009,0.984,1.0,0.142,0.1,0.072,0.288,0.028,0.917,0.08,ABERTA,0.141,0.116,0.02,target_1,1,0.15,0.1,0.02,0.0541,0.0184,-0.0184,False,False,0,box,0.0,0.02,0.3,0.1,box,1.0,0.04,0.04,0.04,1.1,0.7,0.4,-0.3,ee,False,-0.6,0.0,0.05,script_1|reach_only|left_right,0.13,0.96,0.0,-1.24,-0.0,2.18,0.92,-0.01,-1.25,0.0,-0.02,0.0,-0.14,-0.01,-0.0,0.0,0.001,-0.0,-0.0,0.0,goal_sequence,4,target,0.15000000596046448,0.0,0.019999999552965164,0.11634861454821195,target_1,0.15000000596046448,0.10000000149011612,0.019999999552965164,0.018357561374122738,target_2,-0.10000000149011612,0.0,0.019999999552965164,0.2674640176140259,target_3,-0.10000000149011612,0.10000000149011612,0.019999999552965164,0.24153053775982913,False,65
1,67,PICK_AND_PLACE,0.14,-0.008,0.99,1.0,0.147,0.1,0.111,0.144,0.01,0.682,0.08,ABERTA,0.141,0.116,0.02,target_1,1,0.15,0.1,0.02,0.0931,0.0184,-0.0184,False,False,0,box,0.0,0.02,0.3,0.1,box,1.0,0.04,0.04,0.04,1.1,0.7,0.4,-0.3,ee,False,-0.6,0.0,0.05,script_1|reach_only|left_right,0.13,0.91,0.0,-1.23,-0.0,2.13,0.92,-0.01,-0.92,0.0,0.05,0.0,-0.35,-0.01,0.0,-0.0,0.001,-0.0,0.0,0.0,goal_sequence,4,target,0.15000000596046448,0.0,0.019999999552965164,0.11634861454821195,target_1,0.15000000596046448,0.10000000149011612,0.019999999552965164,0.018357561374122738,target_2,-0.10000000149011612,0.0,0.019999999552965164,0.2674640176140259,target_3,-0.10000000149011612,0.10000000149011612,0.019999999552965164,0.24153053775982913,False,66
1,68,PICK_AND_PLACE,0.134,-0.004,0.991,1.0,0.148,0.099,0.145,0.14,0.012,0.833,0.08,ABERTA,0.141,0.116,0.02,target_2,2,-0.1,0.0,0.02,0.1267,0.267,-0.267,False,True,1,box,0.0,0.02,0.3,0.1,box,1.0,0.04,0.04,0.04,1.1,0.7,0.4,-0.3,ee,False,-0.6,0.0,0.05,script_1|reach_only|left_right,0.13,0.87,0.0,-1.22,-0.0,2.07,0.92,-0.01,-1.08,0.0,0.13,0.0,-0.49,-0.01,0.0,-0.0,0.001,-0.0,0.0,0.0,goal_sequence,4,target,0.15000000596046448,0.0,0.019999999552965164,0.11634861454821195,target_1,0.15000000596046448,0.10000000149011612,0.019999999552965164,0.018357561374122738,target_2,-0.10000000149011612,0.0,0.019999999552965164,0.2674640176140259,target_3,-0.10000000149011612,0.10000000149011612,0.019999999552965164,0.24153053775982913,True,67
1,69,PICK_AND_PLACE,-0.253,0.529,-0.81,1.0,0.156,0.118,0.153,-0.166,0.597,-0.569,0.08,ABERTA,0.141,0.116,0.02,target_2,2,-0.1,0.0,0.02,0.1344,0.267,-0.267,False,True,1,box,0.0,0.02,0.3,0.1,box,1.0,0.04,0.04,0.04,1.1,0.7,0.4,-0.3,ee,False,-0.6,0.0,0.05,script_1|reach_only|left_right,0.15,0.85,0.01,-1.24,-0.01,2.15,0.95,0.79,0.69,0.02,-0.21,-0.03,0.59,0.26,0.0,-0.0,0.001,-0.0,0.0,0.0,goal_sequence,4,target,0.15000000596046448,0.0,0.019999999552965164,0.11634861454821195,target_1,0.15000000596046448,0.10000000149011612,0.019999999552965164,0.018357561374122738,target_2,-0.10000000149011612,0.0,0.019999999552965164,0.2674640176140259,target_3,-0.10000000149011612,0.10000000149011612,0.019999999552965164,0.24153053775982913,False,68
1,70,PICK_AND_PLACE,-0.419,-0.058,-0.906,1.0,0.14,0.121,0.11,-0.298,-0.332,-1.028,0.08,ABERTA,0.141,0.116,0.02,target_2,2,-0.1,0.0,0.02,0.0906,0.267,-0.267,False,True,1,box,0.0,0.02,0.3,0.1,box,1.0,0.04,0.04,0.04,1.1,0.7,0.4,-0.3,ee,False,-0.6,0.0,0.05,script_1|reach_only|left_right,0.16,0.89,0.01,-1.28,-0.01,2.17,0.95,-0.38,1.2,0.0,-0.32,-0.01,0.16,-0.06,0.0,-0.0,0.001,-0.0,0.0,0.0,goal_sequence,4,target,0.15000000596046448,0.0,0.019999999552965164,0.11634861454821195,target_1,0.15000000596046448,0.10000000149011612,0.019999999552965164,0.018357561374122738,target_2,-0.10000000149011612,0.0,0.019999999552965164,0.2674640176140259,target_3,-0.10000000149011612,0.10000000149011612,0.019999999552965164,0.24153053775982913,False,69
1,71,PICK_AND_PLACE,0.044,-0.508,0.86,1.0,0.121,0.098,0.077,-0.251,-0.298,-0.571,0.08,ABERTA,0.141,0.116,0.02,target_2,2,-0.1,0.0,0.02,0.0624,0.267,-0.267,False,True,1,box,0.0,0.02,0.3,0.1,box,1.0,0.04,0.04,0.04,1.1,0.7,0.4,-0.3,ee,False,-0.6,0.0,0.05,script_1|reach_only|left_right,0.13,0.93,0.0,-1.28,-0.0,2.11,0.92,-0.34,0.74,-0.03,0.0,0.03,-0.46,-0.2,-0.0,-0.0,0.001,0.0,-0.0,0.0,goal_sequence,4,target,0.15000000596046448,0.0,0.019999999552965164,0.11634861454821195,target_1,0.15000000596046448,0.10000000149011612,0.019999999552965164,0.018357561374122738,target_2,-0.10000000149011612,0.0,0.019999999552965164,0.2674640176140259,target_3,-0.10000000149011612,0.10000000149011612,0.019999999552965164,0.24153053775982913,False,70
1,72,PICK_AND_PLACE,0.103,0.096,-0.249,1.0,0.132,0.102,0.058,0.013,0.095,-0.295,0.08,ABERTA,0.141,0.116,0.02,target_2,2,-0.1,0.0,0.02,0.0416,0.267,-0.267,False,True,1,box,0.0,0.02,0.3,0.1,box,1.0,0.04,0.04,0.04,1.1,0.7,0.4,-0.3,ee,False,-0.6,0.0,0.05,script_1|reach_only|left_right,0.14,0.95,0.0,-1.29,-0.0,2.23,0.93,0.12,0.42,0.0,-0.13,-0.0,0.91,0.06,-0.0,-0.0,0.001,0.0,-0.0,0.0,goal_sequence,4,target,0.15000000596046448,0.0,0.019999999552965164,0.11634861454821195,target_1,0.15000000596046448,0.10000000149011612,0.019999999552965164,0.018357561374122738,target_2,-0.10000000149011612,0.0,0.019999999552965164,0.2674640176140259,target_3,-0.10000000149011612,0.10000000149011612,0.019999999552965164,0.24153053775982913,False,71
1,73,PICK_AND_PLACE,0.027,0.046,-0.092,1.0,0.135,0.104,0.054,0.028,0.017,-0.016,0.08,ABERTA,0.141,0.116,0.02,target_2,2,-0.1,0.0,0.02,0.0362,0.267,-0.267,False,True,1,box,0.0,0.02,0.3,0.1,box,1.0,0.04,0.04,0.04,1.1,0.7,0.4,-0.3,ee,False,-0.6,0.0,0.05,script_1|reach_only|left_right,0.14,0.96,0.0,-1.3,-0.0,2.26,0.93,0.02,0.03,0.0,-0.03,-0.0,0.23,0.01,-0.0,-0.0,0.001,0.0,-0.0,0.0,goal_sequence,4,target,0.15000000596046448,0.0,0.019999999552965164,0.11634861454821195,target_1,0.15000000596046448,0.10000000149011612,0.019999999552965164,0.018357561374122738,target_2,-0.10000000149011612,0.0,0.019999999552965164,0.2674640176140259,target_3,-0.10000000149011612,0.10000000149011612,0.019999999552965164,0.24153053775982913,False,72
1,74,PICK_AND_PLACE,0.015,0.032,-0.064,1.0,0.136,0.105,0.051,0.003,0.011,-0.023,0.08,ABERTA,0.141,0.116,0.02,target_2,2,-0.1,0.0,0.02,0.0331,0.267,-0.267,False,True,1,box,0.0,0.02,0.3,0.1,box,1.0,0.04,0.04,0.04,1.1,0.7,0.4,-0.3,ee,False,-0.6,0.0,0.05,script_1|reach_only|left_right,0.14,0.97,0.0,-1.3,-0.0,2.26,0.93,0.01,0.04,0.0,0.01,-0.0,0.05,0.01,-0.0,-0.0,0.001,0.0,-0.0,0.0,goal_sequence,4,target,0.15000000596046448,0.0,0.019999999552965164,0.11634861454821195,target_1,0.15000000596046448,0.10000000149011612,0.019999999552965164,0.018357561374122738,target_2,-0.10000000149011612,0.0,0.019999999552965164,0.2674640176140259,target_3,-0.10000000149011612,0.10000000149011612,0.019999999552965164,0.24153053775982913,False,73
1,75,PICK_AND_PLACE,0.012,0.026,-0.052,1.0,0.136,0.106,0.049,0.0,0.008,-0.018,0.08,ABERTA,0.141,0.116,0.02,target_2,2,-0.1,0.0,0.02,0.0307,0.267,-0.267,False,True,1,box,0.0,0.02,0.3,0.1,box,1.0,0.04,0.04,0.04,1.1,0.7,0.4,-0.3,ee,False,-0.6,0.0,0.05,script_1|reach_only|left_right,0.14,0.97,0.0,-1.29,-0.0,2.27,0.93,0.01,0.04,0.0,0.02,-0.0,0.02,0.01,-0.0,-0.0,0.001,0.0,-0.0,0.0,goal_sequence,4,target,0.15000000596046448,0.0,0.019999999552965164,0.11634861454821195,target_1,0.15000000596046448,0.10000000149011612,0.019999999552965164,0.018357561374122738,target_2,-0.10000000149011612,0.0,0.019999999552965164,0.2674640176140259,target_3,-0.10000000149011612,0.10000000149011612,0.019999999552965164,0.24153053775982913,False,74
1,76,PICK_AND_PLACE,0.013,0.026,-0.052,1.0,0.136,0.107,0.047,-0.0,0.008,-0.018,0.08,ABERTA,0.141,0.116,0.02,target_2,2,-0.1,0.0,0.02,0.0283,0.267,-0.267,False,True,1,box,0.0,0.02,0.3,0.1,box,1.0,0.04,0.04,0.04,1.1,0.7,0.4,-0.3,ee,False,-0.6,0.0,0.05,script_1|reach_only|left_right,0.14,0.98,0.0,-1.29,-0.0,2.27,0.93,0.01,0.04,0.0,0.02,-0.0,0.02,0.01,-0.0,-0.0,0.001,0.0,-0.0,0.0,goal_sequence,4,target,0.15000000596046448,0.0,0.019999999552965164,0.11634861454821195,target_1,0.15000000596046448,0.10000000149011612,0.019999999552965164,0.018357561374122738,target_2,-0.10000000149011612,0.0,0.019999999552965164,0.2674640176140259,target_3,-0.10000000149011612,0.10000000149011612,0.019999999552965164,0.24153053775982913,False,75
1,77,PICK_AND_PLACE,0.015,0.026,-0.052,1.0,0.136,0.108,0.044,-0.0,0.008,-0.017,0.08,ABERTA,0.141,0.116,0.02,target_2,2,-0.1,0.0,0.02,0.026,0.267,-0.267,False,True,1,box,0.0,0.02,0.3,0.1,box,1.0,0.04,0.04,0.04,1.1,0.7,0.4,-0.3,ee,False,-0.6,0.0,0.05,script_1|reach_only|left_right,0.14,0.98,0.0,-1.29,-0.0,2.27,0.93,0.01,0.04,0.0,0.02,-0.0,0.01,0.01,-0.0,-0.0,0.001,0.0,-0.0,0.0,goal_sequence,4,target,0.15000000596046448,0.0,0.019999999552965164,0.11634861454821195,target_1,0.15000000596046448,0.10000000149011612,0.019999999552965164,0.018357561374122738,target_2,-0.10000000149011612,0.0,0.019999999552965164,0.2674640176140259,target_3,-0.10000000149011612,0.10000000149011612,0.019999999552965164,0.24153053775982913,False,76
1,78,PICK_AND_PLACE,0.017,0.026,-0.051,1.0,0.136,0.109,0.042,0.0,0.008,-0.017,0.08,ABERTA,0.141,0.116,0.02,target_2,2,-0.1,0.0,0.02,0.0237,0.267,-0.267,False,True,1,box,0.0,0.02,0.3,0.1,box,1.0,0.04,0.04,0.04,1.1,0.7,0.4,-0.3,ee,False,-0.6,0.0,0.05,script_1|reach_only|left_right,0.14,0.99,0.0,-1.28,-0.0,2.27,0.94,0.01,0.04,0.0,0.02,-0.0,0.01,0.01,-0.0,-0.0,0.001,0.0,-0.0,0.0,goal_sequence,4,target,0.15000000596046448,0.0,0.019999999552965164,0.11634861454821195,target_1,0.15000000596046448,0.10000000149011612,0.019999999552965164,0.018357561374122738,target_2,-0.10000000149011612,0.0,0.019999999552965164,0.2674640176140259,target_3,-0.10000000149011612,0.10000000149011612,0.019999999552965164,0.24153053775982913,False,77
1,79,PICK_AND_PLACE,0.019,0.026,-0.05,1.0,0.136,0.11,0.04,0.0,0.008,-0.017,0.08,ABERTA,0.141,0.116,0.02,target_2,2,-0.1,0.0,0.02,0.0215,0.267,-0.267,False,True,1,box,0.0,0.02,0.3,0.1,box,1.0,0.04,0.04,0.04,1.1,0.7,0.4,-0.3,ee,False,-0.6,0.0,0.05,script_1|reach_only|left_right,0.15,0.99,0.0,-1.28,-0.01,2.27,0.94,0.01,0.04,0.0,0.03,-0.0,0.01,0.01,-0.0,-0.0,0.001,0.0,-0.0,0.0,goal_sequence,4,target,0.15000000596046448,0.0,0.019999999552965164,0.11634861454821195,target_1,0.15000000596046448,0.10000000149011612,0.019999999552965164,0.018357561374122738,target_2,-0.10000000149011612,0.0,0.019999999552965164,0.2674640176140259,target_3,-0.10000000149011612,0.10000000149011612,0.019999999552965164,0.24153053775982913,False,78
1,80,PICK_AND_PLACE,0.022,0.026,-0.049,1.0,0.136,0.111,0.038,0.001,0.008,-0.016,0.08,ABERTA,0.141,0.116,0.02,target_2,2,-0.1,0.0,0.02,0.0193,0.267,-0.267,False,True,1,box,0.0,0.02,0.3,0.1,box,1.0,0.04,0.04,0.04,1.1,0.7,0.4,-0.3,ee,False,-0.6,0.0,0.05,script_1|reach_only|left_right,0.15,1.0,0.0,-1.28,-0.01,2.27,0.94,0.01,0.04,0.0,0.03,-0.0,0.01,0.01,-0.0,-0.0,0.001,0.0,-0.0,0.0,goal_sequence,4,target,0.15000000596046448,0.0,0.019999999552965164,0.11634861454821195,target_1,0.15000000596046448,0.10000000149011612,0.019999999552965164,0.018357561374122738,target_2,-0.10000000149011612,0.0,0.019999999552965164,0.2674640176140259,target_3,-0.10000000149011612,0.10000000149011612,0.019999999552965164,0.24153053775982913,False,79
